time,smile,disgust,joy,pitch,yaw,roll,frame_x,frame_y,frame_width,frame_height,face_point_0,face_point_1,face_point_2,face_point_3,face_point_4,face_point_5,face_point_6,face_point_7,face_point_8,face_point_9,face_point_10,face_point_11,face_point_12,face_point_13,face_point_14,face_point_15,face_point_16,face_point_17,face_point_18,face_point_19,face_point_20,face_point_21,face_point_22,face_point_23,face_point_24,face_point_25,face_point_26,face_point_27,face_point_28,face_point_29,face_point_30,face_point_31,face_point_32,face_point_33
0.14479780197143555,6.08,0.27,0.01,-6.08,1.22,1.84,-10.15,3.00,180.85,185.59,38.77_108.85,52.13_139.56,78.71_157.66,106.92_139.87,120.48_109.15,40.40_66.85,54.41_63.83,68.86_67.40,89.46_67.54,104.21_63.68,118.52_66.90,79.37_76.50,78.97_102.18,68.47_105.52,79.14_107.89,90.17_105.64,47.29_78.15,66.24_78.37,92.67_78.26,111.72_77.99,60.88_124.54,74.92_119.64,79.33_121.64,83.70_119.69,97.59_124.62,89.58_132.50,78.77_135.63,68.23_132.04,79.25_126.04,78.89_128.78,56.57_76.07,56.36_80.16,102.25_75.78,102.41_80.02
0.34682488441467285,0.31,0.42,0.00,-6.97,0.61,1.46,-3.04,2.84,169.16,185.23,41.03_107.93,53.20_137.82,80.35_157.20,107.94_138.46,119.93_107.60,44.25_66.51,57.02_63.31,71.09_66.93,89.32_67.11,103.88_63.23,117.31_66.63,80.40_76.37,80.34_100.87,70.78_104.62,80.45_107.11,90.22_104.65,50.30_77.46,68.02_78.04,92.71_78.12,110.50_77.65,63.48_123.79,75.91_119.94,80.72_121.70,85.56_119.88,97.65_123.35,90.85_131.38,80.35_134.62,70.23_131.29,80.61_125.74,80.35_128.27,58.98_75.79,58.90_79.95,101.95_75.76,101.95_80.10
0.5474598407745361,84.67,0.00,98.88,-7.82,1.39,2.65,-4.39,3.02,172.17,185.20,41.01_107.01,52.00_136.16,78.71_157.36,108.08_136.96,120.81_107.38,43.74_66.53,56.74_63.64,70.49_66.94,90.21_67.20,104.47_63.87,118.11_67.18,80.31_76.83,79.65_99.69,69.25_103.59,79.92_106.02,91.01_103.95,49.06_77.70,67.72_77.78,93.28_78.01,112.21_78.15,62.96_123.92,75.90_120.11,80.44_122.09,84.92_120.08,97.74_123.77,90.57_132.32,79.52_135.60,69.15_131.96,80.40_126.14,79.70_128.84,58.00_75.93,58.01_80.25,102.69_76.13,102.75_80.40
0.7466030120849609,7.77,0.24,0.01,-10.27,0.79,2.59,-8.10,3.42,177.02,181.90,39.97_105.15,51.60_134.69,77.24_155.01,105.73_136.27,119.49_106.03,41.39_66.62,55.33_63.50,69.66_67.38,89.06_67.54,103.29_63.15,117.85_66.47,79.28_76.96,79.08_102.51,68.21_105.02,79.03_107.80,90.84_105.25,48.01_77.44,66.58_77.90,92.40_77.75,111.37_77.32,59.82_122.28,74.99_118.98,79.43_120.97,83.95_119.05,98.64_122.34,90.22_130.84,78.18_134.27,66.67_130.24,79.36_125.18,78.31_127.53,57.20_75.91,56.98_79.61,101.57_75.49,101.93_79.38
0.9486289024353027,5.46,0.29,0.00,-10.88,0.70,1.85,-5.24,5.39,174.80,180.07,42.59_105.74,54.40_135.20,80.29_155.45,107.73_136.36,120.70_106.36,43.63_67.59,57.33_64.56,71.43_68.43,90.75_68.56,104.72_64.47,119.13_67.71,81.07_77.83,81.10_103.48,70.10_105.93,81.10_108.58,92.83_105.95,49.82_78.17,68.47_78.91,94.11_78.83,112.90_78.31,62.15_123.46,77.06_120.15,81.61_122.08,86.09_120.06,100.40_123.12,92.46_131.26,80.82_134.75,69.24_131.02,81.52_126.23,80.89_128.09,59.03_76.79,58.72_80.67,103.34_76.58,103.57_80.50
1.1496896743774414,9.98,0.21,0.01,-8.25,0.53,1.80,-6.16,1.35,173.62,185.72,40.35_106.23,53.27_134.59,78.84_156.12,105.48_135.44,119.29_105.67,42.38_65.98,55.73_62.34,69.99_66.17,88.67_66.54,103.33_62.61,117.37_66.45,79.37_76.38,79.38_98.84,68.60_103.22,79.50_105.33,91.04_103.27,48.41_77.25,67.17_77.50,92.53_77.46,111.01_77.43,62.62_122.91,75.87_118.85,80.23_120.70,84.53_118.84,96.90_122.85,89.80_131.33,79.14_134.97,68.95_131.05,80.11_124.69,79.30_127.97,57.67_75.44,57.71_79.44,101.61_75.45,101.67_79.46
1.3502306938171387,22.84,0.08,0.12,-10.40,2.28,1.38,-5.89,2.37,172.89,181.43,40.45_102.76,52.19_131.85,79.11_153.57,107.76_132.99,121.40_102.22,42.44_65.58,54.85_62.12,68.75_65.67,89.29_65.56,103.28_61.74,117.12_64.81,78.82_76.12,78.48_98.61,68.47_102.28,78.92_104.82,90.58_102.41,48.77_76.81,66.33_77.17,92.96_77.06,110.06_76.52,62.05_120.07,74.68_116.84,79.99_118.41,85.29_116.93,97.95_119.92,90.57_128.64,79.04_132.18,68.19_128.35,79.92_122.05,79.23_125.97,57.23_76.31,57.26_78.62,101.31_75.89,101.53_78.37
1.5515248775482178,21.35,0.09,0.09,-8.28,0.66,1.52,-5.63,3.64,174.08,184.06,41.39_106.64,54.17_135.45,80.20_157.03,106.69_135.88,119.59_106.38,43.03_67.39,56.05_64.16,69.80_67.12,90.74_67.26,104.99_64.06,118.22_67.70,79.99_76.96,79.91_99.52,68.76_103.35,80.11_105.81,92.06_103.56,48.62_78.04,67.46_77.90,93.81_77.69,112.58_78.04,63.57_123.31,76.20_119.52,80.87_121.51,85.44_119.53,98.15_123.27,91.18_132.39,80.36_136.00,69.97_131.98,80.82_125.41,80.54_129.16,57.71_76.33,57.81_80.07,103.37_76.08,103.18_79.99
1.7495179176330566,25.82,0.07,0.20,-10.35,2.91,3.44,-3.33,0.91,172.45,186.65,41.27_103.35,53.95_134.46,79.76_156.45,108.35_136.23,124.53_103.97,44.87_64.96,56.85_61.93,70.04_65.44,92.08_65.47,105.84_62.47,119.37_65.79,80.81_75.93,80.06_100.91,69.44_102.93,80.28_106.79,92.30_103.25,51.17_76.39,68.09_76.69,95.15_76.92,111.94_76.99,63.34_121.70,76.18_118.55,81.23_120.16,86.39_118.73,98.79_121.94,91.46_130.70,79.81_134.28,69.08_130.23,81.07_123.81,80.00_127.81,59.59_76.03,59.55_77.91,103.19_76.34,103.32_78.32
1.9526777267456055,66.21,0.00,75.57,-8.32,1.51,2.51,-1.71,3.95,172.88,187.66,43.25_108.10,55.72_138.58,81.96_160.33,110.05_140.11,124.73_108.60,46.62_68.39,59.40_65.15,73.19_69.00,93.33_69.13,107.31_65.33,121.29_68.60,82.87_78.64,82.34_102.35,71.62_105.80,82.70_108.84,94.76_106.14,52.51_79.48,70.78_79.95,96.78_79.77,114.68_79.57,65.59_125.85,78.50_121.79,83.52_123.77,88.54_121.89,101.44_125.93,94.03_134.12,82.66_137.54,71.95_133.74,83.42_127.89,82.81_130.90,61.56_77.30,61.44_81.60,105.65_77.14,105.50_81.51
2.1536498069763184,16.55,0.13,0.04,-7.79,0.92,2.23,2.78,2.89,166.15,191.19,45.67_110.19,56.79_140.56,82.85_162.22,111.07_140.84,123.78_110.39,49.22_68.96,61.55_65.49,74.66_68.76,94.23_68.89,107.88_65.42,120.99_68.83,84.48_79.48,83.77_103.54,73.84_106.74,84.19_109.83,94.83_106.84,53.86_79.97,72.47_80.19,96.84_80.24,115.46_80.09,67.31_127.44,80.26_123.14,84.68_125.02,89.14_123.11,102.03_127.32,94.75_135.76,83.76_139.58,73.50_135.52,84.63_129.16,83.93_132.76,63.01_77.41,63.11_82.48,106.14_77.29,106.13_82.43
2.3543448448181152,0.00,0.43,0.00,-14.56,1.42,1.58,1.41,6.58,168.25,189.00,42.24_107.55,57.46_142.81,84.30_164.08,111.31_143.16,127.58_106.75,48.44_70.46,59.65_68.92,72.18_72.21,96.02_72.16,108.77_68.36,121.12_69.74,84.04_82.86,83.52_112.15,73.56_110.62,83.81_115.42,94.38_110.81,55.26_82.75,71.20_83.21,97.89_83.00,113.94_82.28,68.04_128.11,80.08_125.10,84.43_126.42,88.71_125.16,101.07_127.58,94.15_137.71,83.92_141.58,74.42_137.57,84.40_129.07,84.16_135.66,63.12_82.62,63.05_84.96,106.00_82.12,106.17_84.67
2.55515193939209,0.00,0.43,0.00,-0.34,1.22,1.47,-5.33,4.83,175.98,195.79,41.26_119.00,53.89_147.81,81.24_167.99,109.09_147.52,122.79_119.04,43.87_74.16,56.31_68.42,71.03_71.62,92.37_71.67,107.24_68.64,119.88_74.12,81.67_82.60,81.21_105.97,71.19_110.35,81.42_113.46,91.88_110.31,50.53_84.88,68.59_84.94,94.51_85.01,112.72_84.97,62.77_130.44,76.69_125.42,81.62_126.93,86.40_125.42,100.85_129.60,93.21_139.14,81.31_143.30,69.80_139.07,81.70_130.79,81.50_136.46,59.28_82.30,59.60_86.93,103.66_82.11,103.54_86.95
2.7561559677124023,0.00,0.43,0.00,2.80,1.93,1.64,-4.95,5.18,176.76,202.22,41.90_124.56,53.99_153.13,81.65_173.70,111.05_152.87,124.40_124.64,44.46_77.50,56.98_71.38,71.94_74.20,93.00_74.26,108.14_71.65,120.81_77.87,82.80_84.86,81.75_106.58,72.15_113.11,82.03_114.76,92.24_113.09,51.07_88.00,69.92_87.97,94.95_88.04,113.87_87.91,62.63_134.72,77.00_128.00,82.21_129.72,87.39_128.07,102.02_134.35,94.14_145.75,81.94_149.98,70.04_145.51,82.35_134.45,82.08_142.49,60.29_84.83,60.58_90.11,104.39_84.56,104.43_90.05
2.95662784576416,0.00,0.43,0.00,1.80,2.70,3.68,-7.07,4.34,184.93,195.15,39.86_118.45,53.94_148.19,81.88_166.96,112.96_149.59,129.81_120.25,44.63_73.01,57.55_67.51,73.09_70.41,95.96_70.26,111.85_68.09,124.51_74.00,84.78_81.82,83.13_103.97,72.67_109.34,83.08_111.20,94.51_109.50,52.56_84.30,71.69_84.17,97.14_84.33,116.67_84.66,64.73_131.83,78.42_125.14,82.95_126.79,87.64_125.59,102.05_132.86,92.60_139.69,82.12_141.64,72.53_138.67,83.07_131.33,82.54_135.31,61.77_80.94,62.37_86.65,106.88_81.02,106.60_86.91
3.1573848724365234,0.00,0.43,0.00,-3.35,0.88,1.86,-7.83,6.07,182.02,186.85,37.26_116.02,53.03_146.16,82.11_161.77,111.79_146.46,127.77_116.34,43.05_71.61,57.03_67.16,71.69_69.99,93.11_70.06,107.96_67.00,121.67_71.82,82.01_80.46,82.08_107.48,73.57_111.64,82.16_114.10,91.43_111.71,51.26_82.78,69.84_83.15,94.94_82.93,113.66_82.82,64.64_130.64,78.80_125.02,82.46_126.57,86.10_125.28,99.92_131.43,90.91_136.85,81.82_139.05,72.91_136.01,82.52_130.95,82.05_132.60,60.67_79.41,60.52_85.11,104.33_79.26,104.10_85.07
3.357980728149414,0.00,0.43,0.00,3.15,0.70,1.47,-7.09,4.41,180.16,194.76,39.12_120.62,53.49_148.86,81.68_166.71,111.49_148.18,126.12_120.06,43.27_74.23,56.79_67.86,72.60_70.70,92.85_70.62,108.40_67.75,121.09_74.20,83.15_81.00,82.32_102.35,72.85_109.70,82.65_110.90,92.45_109.40,51.14_84.40,70.25_84.16,94.75_84.20,113.73_84.09,64.55_132.03,78.08_124.61,82.66_126.33,87.13_124.69,99.71_132.18,91.90_139.88,81.85_142.45,71.81_139.51,82.91_130.88,81.92_135.31,60.46_80.53,61.01_86.86,104.20_80.31,104.22_86.67
3.5586628913879395,0.00,0.43,0.00,1.20,1.37,2.71,-6.89,4.89,180.54,194.54,36.08_118.99,50.90_149.29,80.61_167.01,112.20_149.94,129.32_119.43,43.57_74.03,56.95_68.35,72.90_71.65,92.15_71.42,108.15_68.28,121.56_74.15,82.85_81.35,81.95_104.14,72.73_110.74,82.22_112.40,91.91_110.87,52.05_84.52,70.21_84.65,94.70_84.83,113.26_84.77,64.18_132.51,77.19_125.20,81.83_126.82,86.42_125.48,99.48_133.08,91.60_140.67,81.17_143.15,71.00_139.90,81.93_131.15,81.28_136.44,60.83_81.40,61.19_86.72,103.95_81.42,103.88_87.08
3.759305953979492,0.00,0.43,0.00,1.90,0.59,1.36,-6.55,5.96,179.46,193.07,38.60_121.12,54.05_149.70,81.67_166.85,111.33_148.80,127.49_120.07,43.62_74.93,57.43_68.82,73.43_72.28,92.71_71.94,108.05_68.88,121.13_74.91,83.49_81.59,82.74_104.40,75.14_112.10,83.04_113.06,90.80_111.70,52.17_85.19,70.85_85.14,94.51_85.10,113.19_84.67,66.10_132.27,79.13_125.56,82.86_126.85,86.44_125.66,98.80_132.85,91.56_140.25,82.27_143.04,72.81_139.64,83.14_131.14,82.45_136.09,61.22_81.43,61.67_87.80,103.69_81.07,103.85_87.52
3.9603137969970703,0.00,0.43,0.00,2.18,0.27,2.26,-5.34,5.93,176.91,194.35,38.10_121.56,53.20_150.10,81.04_167.89,110.72_149.78,126.97_121.48,44.11_75.06,57.69_69.34,73.34_72.74,92.90_72.56,107.80_69.67,120.52_75.58,83.29_82.23,82.57_104.62,74.77_112.27,82.90_113.28,90.90_112.07,52.30_85.53,71.08_85.86,94.10_85.98,112.65_85.64,65.81_133.18,78.68_125.94,82.53_127.46,86.26_126.17,98.73_133.85,91.23_141.58,81.73_144.36,72.28_140.76,82.73_131.74,81.89_137.53,61.55_81.87,61.83_88.48,103.20_81.92,103.30_88.55
4.16068172454834,0.00,0.43,0.00,-8.93,1.46,3.88,-4.67,7.33,176.56,186.34,34.01_110.79,49.08_143.40,79.71_162.61,112.42_144.84,130.80_112.18,44.68_72.60,58.00_68.15,73.21_72.66,91.47_72.33,107.04_68.22,120.94_72.94,82.50_82.44,80.94_108.00,72.07_111.95,81.35_115.23,91.13_112.37,53.27_83.94,71.13_85.26,93.93_85.25,112.12_84.06,62.68_129.04,76.30_125.66,81.28_127.18,86.15_126.02,100.19_129.76,91.81_137.31,80.36_140.15,69.67_136.39,81.30_130.81,80.58_133.99,62.10_82.17,62.15_86.87,102.98_82.04,103.05_87.09
4.362093925476074,0.00,0.43,0.00,-6.66,0.23,1.19,-9.57,8.27,191.55,188.60,37.07_115.72,54.04_148.16,85.72_165.44,117.02_147.91,133.11_115.26,43.98_75.89,59.27_70.00,75.94_74.32,94.06_74.47,111.18_69.92,126.72_75.71,85.34_84.42,85.14_109.52,76.09_115.02,85.34_117.39,94.62_114.95,54.08_85.89,72.73_86.84,97.84_86.88,116.87_85.87,66.52_133.52,81.38_127.92,85.85_129.41,90.52_128.09,103.73_133.35,96.34_140.33,85.35_143.00,74.01_139.93,85.82_133.61,85.52_136.81,63.56_83.66,63.31_88.55,107.42_83.43,107.64_88.54
4.562471866607666,0.00,0.43,0.00,-2.20,1.21,1.89,-7.71,9.21,187.53,187.53,39.50_118.73,54.62_148.66,83.89_165.48,115.36_148.36,131.77_119.29,44.71_76.15,60.11_70.51,76.10_74.16,94.42_74.02,110.79_70.32,125.72_76.04,85.18_83.84,84.60_107.22,75.75_113.94,84.62_115.41,94.02_113.76,53.76_85.55,73.10_86.32,97.28_86.33,116.74_85.59,66.43_133.97,81.40_127.44,85.23_129.08,89.27_127.54,102.73_133.63,94.95_139.99,84.68_142.53,74.04_139.76,85.11_133.66,84.91_136.24,63.61_82.34,63.25_88.44,107.05_82.20,107.20_88.40
4.763398885726929,0.00,0.43,0.00,-1.94,1.99,2.70,-8.08,10.11,194.75,186.98,42.68_118.79,56.38_148.12,86.07_165.93,118.43_149.11,134.62_120.55,46.36_76.41,61.76_71.12,77.93_74.56,98.39_74.36,115.12_70.94,130.49_76.24,87.92_84.09,86.91_107.30,77.33_113.52,86.94_115.22,97.49_113.36,55.03_85.69,75.18_86.34,101.17_86.25,121.47_85.56,68.31_134.16,83.54_127.93,87.67_129.67,92.09_128.02,106.05_134.01,97.71_140.30,86.58_142.72,75.82_139.96,87.48_134.18,86.87_136.64,65.22_82.74,64.88_88.59,111.33_82.50,111.48_88.35
4.964242935180664,0.00,0.43,0.00,-7.66,0.49,3.64,-8.27,7.22,186.14,180.78,38.08_109.89,52.54_141.18,80.93_157.87,111.13_143.28,127.88_112.26,43.76_68.65,57.98_66.06,73.08_69.83,93.58_69.65,109.41_66.19,124.17_69.50,83.37_79.63,82.80_105.92,72.95_109.44,82.66_111.57,93.17_109.68,51.07_79.87,70.59_80.69,96.42_80.75,116.41_79.97,64.46_127.54,78.95_123.71,82.98_125.60,87.28_124.20,101.73_128.74,91.92_133.87,81.60_135.49,72.54_132.69,82.83_129.65,81.94_130.22,60.62_77.94,60.37_82.74,106.44_77.78,106.58_82.91
5.164923667907715,0.00,0.43,0.00,-5.36,1.90,3.36,-6.50,0.63,180.17,186.96,39.66_105.88,51.41_136.82,80.13_156.43,111.79_138.71,127.80_106.55,43.86_64.65,57.17_60.99,71.80_65.71,92.52_65.41,107.52_61.54,121.68_65.39,82.53_74.90,82.04_98.61,71.06_102.16,82.25_104.93,93.39_102.32,50.79_75.13,70.46_76.10,94.79_76.48,114.40_75.62,62.61_121.51,76.87_117.45,82.28_119.66,87.96_117.89,101.46_123.05,92.37_129.60,80.70_131.60,69.99_128.35,82.15_123.94,81.06_125.79,60.42_72.57,60.43_78.29,104.48_72.95,104.48_78.74
5.365952968597412,0.00,0.43,0.00,-4.19,1.15,3.71,-6.12,6.32,179.53,172.41,40.46_106.33,52.97_135.19,79.71_150.00,108.72_137.66,124.43_108.92,44.07_64.61,56.85_62.22,70.66_64.53,93.70_64.29,108.09_61.92,121.61_65.08,82.20_74.10,82.31_98.56,71.96_102.48,82.02_104.27,92.71_102.76,49.81_74.91,69.54_75.05,95.63_75.00,115.04_74.60,63.36_122.58,77.74_118.26,81.62_120.37,85.77_118.67,99.56_123.87,89.30_126.23,79.86_126.90,71.69_125.05,81.65_124.44,80.23_122.54,59.11_72.25,58.95_77.52,105.43_71.90,105.43_77.28
5.56689977645874,0.00,0.43,0.00,-0.62,1.06,1.77,-4.11,1.20,176.45,186.34,44.44_110.56,56.35_138.66,82.45_156.48,110.14_138.15,123.49_110.20,45.21_66.24,59.12_61.72,73.56_65.01,93.35_64.72,107.97_61.62,121.43_66.38,83.87_74.60,83.40_95.80,73.01_100.88,83.57_102.41,93.97_100.86,51.38_75.75,71.14_75.77,95.87_75.87,114.95_75.54,65.42_123.99,79.27_118.20,83.51_120.24,87.92_118.28,100.34_124.48,92.34_130.51,82.38_132.65,72.74_130.16,83.63_124.70,82.57_126.87,60.95_72.36,61.18_78.38,105.39_72.34,105.38_78.24
5.767610788345337,0.00,0.43,0.00,-4.14,0.39,3.28,-3.13,4.20,175.23,179.26,42.63_107.75,55.24_136.82,81.33_153.58,109.46_138.23,124.38_109.06,45.85_64.15,59.12_62.13,72.68_64.88,94.71_64.75,108.45_62.09,121.54_65.09,83.89_74.63,83.87_98.58,72.81_102.41,83.59_104.40,94.64_102.70,51.52_75.01,70.96_75.05,96.69_75.17,115.58_74.88,64.96_123.29,79.25_118.47,83.26_120.67,87.61_118.91,100.91_124.56,91.36_128.43,81.53_129.87,72.77_127.50,83.33_125.14,81.92_124.72,60.77_72.24,60.64_77.64,106.22_72.18,106.26_77.52
5.968210697174072,0.00,0.43,0.00,-4.01,1.59,3.13,-4.98,2.52,178.08,183.20,43.95_108.64,56.00_138.05,81.07_155.18,108.88_139.49,125.39_109.74,44.80_65.65,58.67_62.23,72.96_65.69,94.02_65.57,107.87_62.38,121.72_65.64,83.55_76.14,83.53_99.14,73.57_103.23,83.08_105.35,93.64_103.37,51.22_75.62,70.82_76.23,96.22_76.36,115.52_75.84,65.02_124.38,79.45_118.82,83.20_120.65,87.29_119.08,100.12_125.46,91.37_130.91,81.37_132.79,71.95_130.02,83.22_125.19,81.70_126.91,60.73_72.97,60.47_78.35,105.98_73.04,106.02_78.49
6.169091701507568,0.00,0.43,0.00,-2.89,1.10,2.46,-2.69,1.21,170.00,185.19,41.56_108.74,54.46_138.28,80.44_155.54,107.93_138.14,123.26_108.47,44.83_65.06,57.93_61.46,71.51_65.05,92.02_64.82,105.62_61.87,118.26_65.86,82.18_74.98,81.87_96.73,71.92_102.03,81.87_103.52,91.54_102.13,51.74_75.46,70.05_75.79,93.38_76.20,111.43_75.60,64.34_123.73,77.52_118.08,81.54_119.97,85.66_118.26,97.80_124.75,89.81_130.42,80.37_132.52,71.48_129.85,81.70_124.30,80.58_126.78,60.75_71.95,61.21_78.16,102.02_72.09,102.07_78.38
6.370170831680298,0.00,0.43,0.00,-17.88,-0.09,4.85,-0.45,7.57,174.39,170.48,38.41_99.48,53.74_133.06,82.31_149.64,112.81_136.20,131.46_101.42,48.30_63.08,61.17_64.35,73.24_68.63,97.11_68.89,110.01_64.74,123.62_64.15,85.24_78.90,85.24_106.93,75.36_106.92,84.58_110.42,94.93_107.68,54.59_76.24,73.06_77.39,98.07_77.88,115.93_76.74,66.77_121.07,80.80_120.61,84.63_122.34,88.73_121.27,101.39_123.18,91.79_127.57,82.35_128.60,74.33_125.79,84.50_125.70,82.79_124.01,63.81_75.09,63.64_79.38,106.88_75.47,106.98_79.91
6.5707688331604,0.00,0.43,0.00,-3.68,2.09,3.88,-2.80,5.62,174.65,174.74,42.92_107.74,54.52_136.62,80.28_151.24,109.19_138.71,124.51_110.01,46.02_64.91,59.56_62.22,73.45_65.35,92.64_65.12,107.27_62.22,121.46_65.47,82.99_74.22,82.25_98.57,72.84_103.86,82.22_105.02,92.61_103.96,52.20_75.40,70.87_75.77,95.93_75.75,114.78_75.21,65.32_123.95,78.94_118.82,82.41_120.82,86.20_119.22,99.40_124.99,89.89_127.93,80.89_128.68,72.97_126.94,82.40_125.36,81.26_123.43,61.10_72.93,60.83_78.12,105.43_72.68,105.63_78.03
6.7712860107421875,0.00,0.43,0.00,-11.99,1.90,4.59,-4.39,6.01,176.72,173.92,40.05_102.01,53.13_133.46,79.74_150.95,109.33_136.50,128.47_105.14,45.02_63.29,57.53_62.65,70.04_66.55,94.64_66.00,108.05_62.82,121.35_64.34,82.62_78.01,82.57_102.02,72.02_104.00,82.22_107.26,93.25_104.13,50.69_74.90,70.28_75.98,95.13_76.59,114.42_75.40,64.77_123.02,78.28_119.62,82.22_121.60,86.37_120.11,99.02_125.08,89.18_128.49,79.68_129.52,71.81_127.08,82.11_125.33,80.18_125.03,60.05_72.68,60.01_78.18,104.57_73.11,104.66_78.51
6.972324848175049,0.00,0.43,0.00,-0.76,2.20,1.63,-5.16,-0.57,177.16,188.70,43.04_109.66,55.30_139.06,82.24_156.68,110.21_138.68,124.89_109.83,44.37_64.04,57.96_60.59,72.18_64.54,92.74_64.34,107.25_60.94,120.89_64.67,82.48_74.30,82.18_95.45,71.48_100.65,82.12_102.35,93.21_100.71,50.37_74.52,69.77_75.12,95.61_75.06,114.67_74.56,64.51_123.76,77.58_117.02,82.53_119.07,87.56_117.09,100.20_124.09,92.22_130.21,82.05_132.44,72.25_129.89,82.75_123.78,82.38_126.37,59.80_71.44,59.69_77.46,105.05_71.48,105.03_77.39
7.17291784286499,0.00,0.43,0.00,-5.78,3.76,2.97,-5.59,-1.53,178.38,191.53,42.80_106.99,55.32_139.00,81.21_158.08,109.67_140.56,127.19_108.12,44.27_64.00,57.55_60.68,71.79_65.77,92.28_65.66,106.99_61.33,121.32_64.63,81.99_75.69,81.59_99.98,71.24_103.64,81.79_107.19,92.74_103.64,50.49_75.20,69.76_76.24,95.39_76.52,114.23_75.53,64.64_124.59,77.08_118.59,81.96_120.54,87.00_118.81,99.77_125.57,91.74_131.90,80.95_133.91,71.21_130.96,82.03_125.08,81.35_127.73,59.88_72.53,59.72_78.31,104.59_72.84,104.70_78.52
7.373811721801758,0.00,0.43,0.00,-15.51,3.20,4.53,-2.90,6.66,174.36,171.16,40.48_99.33,55.53_132.93,80.95_149.29,110.10_134.62,130.60_101.21,45.84_62.57,57.95_63.17,70.42_66.82,95.07_66.76,107.68_63.30,121.16_63.08,82.69_77.45,82.57_104.12,72.21_104.58,82.12_107.86,93.38_105.09,52.34_74.88,70.62_76.18,95.66_77.17,113.42_75.79,66.11_121.56,78.66_118.59,82.54_120.38,86.56_119.10,98.75_123.69,89.47_127.36,80.59_128.79,73.02_126.21,82.60_124.06,80.84_123.92,61.25_73.17,61.35_78.36,103.95_74.04,104.42_79.07
7.5744788646698,0.00,0.43,0.00,-1.01,2.27,2.02,-4.90,-0.21,176.55,189.25,43.37_110.30,55.74_140.22,81.73_157.50,109.39_140.22,125.24_110.46,44.45_65.25,58.16_61.08,72.02_65.19,93.16_65.21,106.88_61.62,120.71_65.51,82.42_74.40,82.28_96.59,72.21_102.66,82.36_104.22,92.83_102.71,51.11_75.74,69.98_76.44,95.46_76.63,114.10_76.30,65.14_125.12,78.23_118.39,82.68_120.31,87.40_118.40,99.58_125.55,91.55_131.14,81.65_133.04,72.26_130.77,82.89_125.05,82.01_126.69,60.63_72.32,60.44_78.36,104.50_72.62,104.41_78.67
7.775200843811035,0.00,0.43,0.00,-1.10,1.56,1.98,-2.59,2.77,173.89,188.10,44.44_112.22,57.12_141.60,82.50_159.52,109.35_141.22,124.33_111.99,46.02_67.45,59.09_63.77,72.50_66.72,94.50_66.72,108.00_63.79,121.13_67.55,83.62_76.56,83.14_98.18,73.02_103.77,83.26_104.96,93.77_103.80,52.25_77.95,71.12_78.05,96.28_78.27,114.78_78.21,66.78_127.57,79.28_120.29,83.52_122.10,88.09_120.27,99.64_127.97,91.97_133.52,82.61_135.47,73.66_133.17,83.75_126.77,82.90_129.37,61.64_74.44,61.84_80.45,105.37_74.63,105.19_80.55
7.97613787651062,0.00,0.43,0.00,-2.80,1.82,2.90,-4.44,3.24,179.86,182.35,44.64_107.85,57.78_138.54,82.62_155.20,109.74_139.55,125.46_108.97,45.84_65.37,59.58_62.15,73.60_65.03,95.37_65.24,109.42_62.09,123.53_65.75,83.89_74.37,83.73_97.55,73.57_102.55,83.63_104.01,94.97_102.57,51.88_75.09,71.22_75.22,97.84_75.33,116.79_75.18,66.38_124.11,80.45_118.24,84.22_120.20,88.23_118.38,101.26_124.87,92.11_129.28,82.53_130.93,73.78_128.60,84.26_124.68,82.83_125.41,61.30_72.28,60.99_77.36,107.49_72.31,107.35_77.51
8.176564693450928,0.00,0.43,0.00,-0.27,1.17,1.43,-3.41,0.53,175.84,187.17,45.06_110.26,56.69_138.92,82.57_156.50,109.92_138.43,124.00_110.00,45.74_65.59,59.39_61.49,73.23_64.29,94.13_64.09,108.02_61.29,121.70_65.24,83.67_74.36,83.35_94.66,72.71_100.27,83.55_101.30,94.81_100.05,50.94_75.59,70.70_75.26,96.68_75.37,116.23_75.46,66.39_124.92,79.66_118.08,84.12_120.18,88.73_117.99,100.44_124.78,92.69_130.65,82.93_132.81,73.47_130.69,84.24_124.87,83.11_126.75,60.47_72.24,60.74_78.15,106.50_72.17,106.34_77.95
8.377489805221558,0.00,0.43,0.00,-4.89,3.08,1.61,-5.25,-0.21,176.93,189.19,42.76_107.81,55.76_139.65,82.35_157.44,110.79_139.95,127.84_107.45,44.21_65.19,57.78_61.23,72.14_65.70,92.55_65.40,106.84_61.55,120.63_65.01,82.45_75.44,82.49_98.13,72.52_103.85,82.56_105.58,92.78_103.93,51.83_75.88,70.26_76.66,95.14_76.90,113.21_75.86,65.67_125.17,78.14_119.27,82.77_121.02,87.51_119.36,99.65_125.83,91.72_131.69,81.78_133.57,72.53_131.03,82.91_125.38,82.19_127.43,60.90_72.76,60.91_78.50,103.91_72.81,103.98_78.58
8.578214883804321,0.00,0.43,0.00,-7.31,1.43,1.46,-5.38,3.70,181.10,182.77,41.50_108.04,56.71_139.80,83.75_156.01,111.91_139.88,130.89_108.22,45.24_66.70,58.60_63.95,72.91_67.46,95.90_67.12,109.41_63.17,123.47_65.15,84.24_78.29,84.79_102.03,75.09_105.81,84.68_108.06,95.18_105.57,52.77_77.74,71.68_78.19,97.61_78.51,116.22_77.18,67.67_126.15,80.73_121.12,85.03_122.76,89.28_121.18,101.05_126.76,92.58_131.23,83.44_133.32,74.79_130.91,85.13_126.91,83.59_127.86,62.22_74.43,61.98_80.28,106.80_74.30,106.93_80.13
8.779014825820923,0.00,0.43,0.00,-0.88,2.20,1.37,-5.19,3.95,178.61,192.45,44.21_118.50,56.92_146.85,83.61_164.32,111.01_147.17,126.56_118.66,44.73_70.97,57.73_66.68,71.60_70.36,94.85_70.27,108.81_67.03,121.88_70.86,83.28_82.98,83.41_103.88,72.82_109.81,83.34_111.14,94.22_110.05,51.41_83.50,70.77_84.16,96.41_84.53,115.39_83.80,67.07_133.12,79.31_125.85,83.80_127.70,88.41_125.91,100.67_133.53,92.60_139.04,83.21_140.81,74.46_138.36,83.94_132.46,83.60_134.47,60.97_79.93,61.08_86.47,105.80_80.26,105.70_86.71
8.980050802230835,0.00,0.43,0.00,-2.92,1.53,3.02,-3.81,13.70,174.67,190.80,42.74_125.68,56.85_155.35,80.71_172.70,106.20_157.14,123.50_126.96,45.01_81.27,57.08_75.99,70.48_78.30,94.36_77.92,108.47_75.94,120.46_81.94,81.98_92.30,81.84_115.43,72.37_119.78,81.81_121.64,92.22_120.00,50.59_92.57,70.41_93.05,95.00_93.19,114.77_92.81,66.09_143.22,78.87_136.41,82.23_138.23,85.88_136.72,98.51_144.31,89.74_148.26,81.11_149.56,73.55_147.35,82.39_142.81,81.46_144.28,59.98_88.64,59.82_95.79,105.17_88.57,105.01_95.94
9.180388927459717,0.00,0.43,0.00,-0.96,2.53,2.28,-6.29,10.79,179.91,198.13,44.17_129.37,56.18_157.52,81.54_175.90,108.10_158.58,124.03_130.18,44.01_81.60,56.31_75.60,70.33_78.61,93.83_78.39,109.01_76.01,121.72_82.34,81.68_94.24,81.66_114.84,71.86_120.12,81.92_121.90,92.49_120.34,49.50_94.72,69.63_95.31,95.72_95.66,116.05_95.16,65.61_145.19,78.33_138.31,82.47_140.23,86.78_138.33,98.95_145.34,91.51_150.69,81.86_152.47,72.89_150.32,82.63_145.14,82.17_146.68,59.19_90.88,59.30_98.25,105.99_91.17,105.77_98.45
9.381171703338623,0.00,0.43,0.00,-5.60,-0.12,1.59,-3.54,16.78,173.31,186.91,43.04_124.31,55.78_154.57,81.43_172.54,107.30_154.67,121.99_125.08,44.91_81.11,57.41_77.82,69.93_82.13,94.24_81.54,107.42_77.49,119.77_81.56,82.13_93.74,82.76_114.99,72.53_119.24,82.49_121.41,93.22_119.24,49.86_92.30,69.44_92.68,95.50_92.89,114.89_92.19,65.83_142.35,78.59_136.71,82.85_138.60,87.00_136.71,98.91_142.25,91.27_147.03,81.91_148.97,73.02_146.68,82.96_143.38,82.19_143.51,58.97_89.01,58.80_95.19,105.65_88.79,105.48_95.05
9.581977844238281,0.00,0.43,0.00,-5.18,0.40,2.07,-5.52,18.15,177.83,186.87,42.58_125.32,55.98_156.23,81.73_173.87,107.75_157.13,123.60_126.38,44.19_81.35,56.68_79.05,69.17_83.53,94.79_83.24,108.25_78.79,121.00_82.29,82.26_94.44,83.15_116.52,72.84_120.26,82.74_122.45,93.21_120.53,49.52_92.62,69.11_93.35,96.16_93.78,115.30_93.15,66.27_143.25,79.00_137.09,82.96_138.96,86.94_137.16,98.99_143.61,90.66_148.32,81.79_150.13,73.59_147.67,83.04_143.50,81.94_144.61,58.80_89.95,58.52_95.44,106.12_90.21,105.94_95.76
9.782729864120483,0.00,0.43,0.00,-4.42,2.33,2.12,-2.91,13.77,175.51,192.67,44.55_124.84,57.61_155.15,83.42_174.33,110.13_155.44,126.14_126.12,46.15_79.23,58.30_76.41,70.86_81.49,96.12_81.70,109.25_76.66,121.96_79.67,83.71_94.21,83.67_114.56,73.55_118.83,83.59_120.53,93.82_118.92,51.66_92.35,70.95_92.96,96.60_93.20,115.72_92.51,67.86_142.57,79.09_135.21,83.54_137.23,88.06_135.20,99.19_142.59,91.62_148.32,83.08_150.25,74.86_148.05,83.58_142.33,83.30_143.85,60.85_89.15,61.17_95.52,106.31_89.28,106.08_95.69
9.983298778533936,0.00,0.43,0.00,0.26,2.98,1.91,-4.88,6.52,173.33,198.05,43.51_125.48,54.75_153.13,79.95_171.56,106.69_153.58,121.64_126.22,43.57_76.65,55.42_71.17,68.98_73.77,91.82_73.48,106.30_71.42,118.44_77.38,80.51_88.52,79.69_109.23,69.99_114.07,80.16_115.74,90.73_114.10,47.88_89.77,68.33_89.83,93.38_89.80,113.53_89.77,64.29_140.41,76.88_133.53,80.59_135.50,84.56_133.60,96.34_140.59,88.78_145.88,80.06_147.69,71.55_145.75,80.78_139.86,80.26_142.46,57.40_85.38,57.68_93.36,103.82_85.42,103.56_93.28
10.184467792510986,0.00,0.43,0.00,-8.18,-0.13,1.19,-2.96,13.34,170.02,180.83,40.54_116.54,55.22_146.69,81.38_164.04,107.92_147.54,124.14_117.42,44.56_73.83,56.86_72.53,68.34_77.05,93.87_76.66,105.79_72.18,118.00_74.03,81.56_87.94,82.75_110.98,72.73_114.05,82.51_116.60,92.70_113.91,50.38_85.97,69.13_86.63,94.53_86.82,112.89_85.78,65.76_134.67,78.77_129.55,82.61_131.29,86.51_129.73,98.24_135.44,89.62_139.71,81.14_141.57,73.31_139.00,82.82_135.47,81.35_136.18,59.26_82.60,59.28_88.91,103.52_82.44,103.56_88.64
10.385085821151733,0.00,0.43,0.00,-2.31,1.54,2.61,-3.96,7.12,178.45,188.38,45.48_118.33,58.28_146.83,82.80_164.11,109.75_147.71,126.18_119.02,45.92_72.68,58.77_68.38,72.44_71.37,96.79_71.17,110.39_68.40,123.01_73.02,84.26_84.15,84.55_106.97,74.10_110.79,84.20_112.89,95.57_111.08,51.93_84.37,71.96_84.53,97.40_84.71,116.93_84.65,66.79_132.81,81.41_127.24,84.79_129.13,88.64_127.61,101.62_133.89,92.18_138.93,82.86_140.60,74.32_138.03,84.90_133.42,83.37_135.29,61.46_80.67,61.46_87.06,107.52_80.81,107.20_87.28
10.581478834152222,0.00,0.43,0.00,-4.28,0.34,1.63,-5.28,6.09,182.52,184.82,44.39_113.02,58.66_143.06,84.69_160.11,112.09_143.26,128.75_112.98,45.75_70.08,59.52_65.99,74.03_69.67,97.60_69.44,111.18_65.83,124.59_69.52,85.55_80.71,86.42_103.55,75.52_107.64,85.77_110.31,97.45_107.64,52.45_80.18,72.33_80.57,98.82_80.88,118.15_80.23,67.64_128.26,82.31_123.64,86.48_125.44,90.89_123.91,103.42_129.44,94.27_133.89,84.40_135.83,75.11_133.37,86.57_129.92,84.71_129.96,62.27_76.54,62.15_82.72,108.55_76.49,108.59_82.90
10.766863822937012,0.00,0.43,0.00,-9.42,2.37,2.71,-3.47,3.16,173.19,181.42,40.70_105.13,55.07_137.54,80.80_154.34,109.49_138.31,128.72_105.72,44.94_64.65,57.72_62.48,70.71_65.62,94.24_65.38,106.86_62.20,119.75_64.19,82.19_76.60,82.31_102.54,72.81_104.62,82.24_107.86,92.69_104.67,51.79_75.72,70.21_76.09,94.98_76.33,113.07_75.78,64.80_124.24,78.42_119.83,82.66_121.59,86.90_120.11,99.53_125.55,90.13_130.07,80.60_131.87,71.96_129.23,82.76_125.70,80.99_126.61,60.81_72.79,60.77_78.24,104.04_72.87,103.87_78.29
10.97948694229126,0.00,0.43,0.00,-0.91,1.55,1.51,-3.44,2.48,176.03,187.03,44.64_111.19,57.27_139.82,82.94_158.34,109.95_139.19,124.42_110.58,45.76_66.99,58.88_63.25,72.29_65.95,95.23_65.71,108.75_62.98,121.80_66.65,83.49_75.86,83.17_96.23,72.92_102.08,83.27_102.80,94.26_101.87,51.60_77.18,70.83_76.88,96.96_76.98,115.89_77.28,66.57_125.83,79.70_119.35,83.93_121.22,88.38_119.31,100.28_125.98,92.49_131.69,83.02_133.90,73.84_131.77,84.09_125.96,83.26_127.78,61.06_73.37,61.36_79.41,106.42_73.38,106.15_79.39
11.193519830703735,0.00,0.43,0.00,-5.56,1.70,2.46,-5.30,3.75,178.61,184.35,43.56_108.82,57.13_139.43,82.15_157.38,109.20_140.18,126.85_109.36,44.62_67.23,58.27_63.52,72.42_67.07,94.67_66.95,108.36_63.57,121.77_67.30,83.29_77.88,83.74_101.29,73.98_105.01,83.34_107.70,93.82_105.08,51.49_77.32,70.69_77.64,96.18_78.01,114.79_77.53,65.88_125.60,79.99_120.51,83.79_122.19,87.85_120.76,100.15_126.77,91.22_131.73,81.61_133.77,72.77_131.04,83.97_126.59,81.97_127.88,60.98_73.92,60.89_79.69,105.45_74.01,105.44_80.00
11.389100790023804,0.00,0.43,0.00,-1.91,2.59,2.32,-4.66,-0.85,172.39,190.43,41.66_108.61,54.82_139.29,79.34_157.85,106.12_139.74,122.58_108.73,43.52_65.11,56.42_60.93,70.07_64.90,90.82_64.99,104.80_61.41,117.99_65.62,80.37_74.04,79.86_96.45,69.96_101.78,79.95_103.76,90.58_101.81,50.77_75.85,68.66_76.07,92.93_76.29,110.46_76.16,63.23_123.93,76.22_117.58,80.58_119.47,85.11_117.56,97.36_124.37,89.78_131.05,79.44_133.58,69.83_130.75,80.63_123.77,79.71_127.17,59.86_73.39,59.95_77.85,101.20_73.61,101.16_77.96
11.582271814346313,0.00,0.43,0.00,-15.06,2.58,3.33,-4.46,10.95,170.93,165.98,37.55_99.89,54.00_133.67,78.62_149.27,106.42_135.28,127.61_100.17,43.32_66.45,54.64_65.54,67.12_68.12,91.88_67.76,104.28_65.02,117.15_66.69,79.77_78.85,80.21_105.28,70.70_105.37,79.81_108.80,90.25_106.05,51.43_76.54,67.78_77.75,92.83_78.68,109.13_76.93,64.10_121.01,76.80_117.95,80.46_119.65,84.28_118.59,95.80_123.26,87.49_127.23,78.08_128.88,70.27_126.06,80.68_123.54,78.46_124.23,59.92_75.02,59.83_79.46,100.06_75.23,100.84_79.98
11.783807754516602,0.00,0.43,0.00,-2.43,3.50,2.18,-7.19,-0.91,175.93,191.24,38.93_108.05,53.75_140.41,78.29_158.46,106.15_140.76,124.94_107.71,41.98_65.57,54.53_61.41,68.10_64.59,90.68_64.62,104.63_61.80,117.98_66.24,79.08_74.37,78.40_96.61,68.52_101.95,78.71_104.12,89.87_102.01,49.67_77.16,67.05_76.21,92.54_76.47,110.17_77.58,62.21_125.14,75.43_118.02,79.94_119.86,84.73_118.03,96.70_125.39,88.77_132.33,78.45_135.03,68.78_132.25,80.07_124.09,78.73_128.62,58.53_75.74,58.86_78.14,100.80_75.97,100.73_78.30
11.988387823104858,0.00,0.43,0.00,-7.66,4.84,3.71,-3.97,0.46,171.84,189.52,39.28_104.79,54.78_139.63,78.72_158.39,107.11_140.74,127.55_105.29,44.06_66.05,55.92_62.14,69.28_65.20,91.35_65.31,105.30_62.60,118.29_66.72,80.15_76.22,78.62_101.53,69.48_104.57,79.19_108.07,90.00_104.88,52.83_77.48,69.09_77.43,92.92_77.74,109.60_77.97,62.87_123.95,75.83_119.17,80.22_120.93,84.78_119.41,97.35_124.79,89.28_131.99,78.61_134.95,69.21_131.56,80.34_124.64,78.95_128.92,61.05_76.07,61.30_79.08,100.67_76.44,100.80_79.39
12.19237995147705,0.00,0.43,0.00,-7.75,1.45,3.23,-4.31,3.54,169.89,184.44,36.07_105.96,52.63_140.13,77.69_157.24,104.77_142.08,123.79_107.77,43.18_65.42,54.59_63.46,66.65_65.26,92.48_65.12,104.92_63.28,116.57_66.26,79.08_76.45,78.72_105.24,69.83_106.54,78.78_109.73,88.85_106.71,50.90_77.64,67.00_77.34,92.21_77.44,108.33_77.25,62.50_124.59,75.37_119.43,79.01_121.20,82.84_119.80,95.94_125.43,86.83_131.35,78.03_133.43,70.18_130.38,79.11_125.25,78.21_128.30,59.30_75.78,59.04_79.07,99.89_75.45,99.86_78.89
12.39299988746643,0.00,0.43,0.00,-9.02,2.98,5.50,-2.87,5.23,170.11,180.82,37.96_103.62,53.27_138.46,77.00_155.91,104.89_141.78,125.83_107.70,44.68_65.21,55.80_63.84,67.52_65.90,93.84_65.65,106.13_63.91,118.16_66.65,79.98_77.57,79.25_105.30,69.71_105.99,79.05_109.20,89.84_106.70,51.91_77.17,68.26_77.36,93.35_77.98,109.98_77.42,62.92_123.85,75.77_119.34,79.46_121.14,83.37_119.90,96.40_125.39,86.90_130.96,77.62_132.73,70.02_129.57,79.57_125.00,77.95_127.88,60.35_75.40,59.99_79.11,101.07_75.49,101.01_79.41
12.593991756439209,0.00,0.43,0.00,-8.67,5.95,5.15,-5.97,1.26,173.68,186.39,38.07_103.45,53.37_137.49,76.14_156.58,105.13_139.57,126.95_104.77,42.58_65.81,53.85_61.89,66.91_64.50,90.89_64.79,104.68_62.42,117.60_66.26,78.28_76.07,76.45_102.77,67.80_104.64,77.18_108.60,87.97_105.43,51.51_76.77,67.19_77.00,92.10_77.50,108.49_77.59,60.52_122.07,74.14_118.08,78.48_119.72,82.94_118.45,95.93_123.72,87.03_130.83,76.25_133.40,67.12_130.00,78.55_123.25,76.69_127.60,59.44_75.19,59.64_78.48,99.63_75.78,99.79_79.15
12.794509887695312,0.00,0.43,0.00,-8.63,5.67,3.99,-4.34,2.78,173.10,186.17,39.04_104.50,54.52_139.57,77.90_157.93,106.97_141.66,129.14_104.57,44.05_67.16,55.43_63.28,68.72_66.43,91.54_66.15,105.34_63.33,118.82_66.93,79.46_76.67,78.24_103.29,68.70_105.57,78.81_109.58,90.17_106.34,52.64_77.78,68.18_78.18,93.84_78.45,109.93_78.25,62.80_123.79,75.52_119.22,80.11_120.81,85.07_119.39,98.05_125.13,89.64_131.92,78.27_134.56,68.72_131.31,80.23_124.58,78.60_128.61,60.58_76.64,60.51_79.30,101.15_76.81,101.38_79.66
12.99543571472168,0.00,0.43,0.00,-15.56,2.14,5.21,1.94,16.81,160.83,163.27,39.73_99.91,54.42_136.24,78.12_152.87,105.63_139.64,124.30_103.56,46.90_69.51,57.82_69.50,68.84_70.95,93.56_70.81,104.86_69.66,116.38_70.77,80.56_81.32,79.79_108.93,71.43_108.48,79.58_111.63,89.32_109.03,53.91_78.74,69.10_80.39,93.26_80.69,108.47_79.02,64.92_123.64,77.13_120.42,80.21_122.28,83.52_121.06,96.18_125.48,87.25_129.76,78.73_131.11,71.82_128.34,80.40_125.59,79.00_127.03,61.96_77.72,61.31_81.74,100.05_77.61,100.41_81.90
13.196012020111084,0.00,0.43,0.00,-10.12,2.90,4.36,-3.26,4.57,172.08,183.02,39.24_105.14,55.33_138.87,78.44_157.09,105.71_141.40,126.95_107.14,44.85_65.76,56.52_64.24,68.41_66.09,94.08_66.17,106.74_64.10,119.18_66.81,80.94_78.40,80.20_106.33,71.91_107.74,80.60_110.91,90.39_108.04,52.43_78.83,69.22_78.01,94.02_78.34,111.06_78.63,64.40_125.21,77.44_120.33,80.82_122.05,84.46_120.74,97.14_126.48,87.71_132.11,78.78_134.31,71.23_131.19,81.02_126.11,79.10_128.94,60.83_76.71,61.13_80.07,101.94_76.52,102.02_79.95
13.396722793579102,0.00,0.43,0.00,-5.64,2.43,2.69,-4.86,1.89,178.37,182.03,43.52_106.31,56.43_136.69,81.64_153.59,109.18_137.27,126.62_106.81,45.00_63.75,57.89_61.34,71.07_64.38,95.85_64.24,108.70_61.30,122.05_64.00,82.86_75.90,82.69_98.46,72.56_101.48,82.51_103.74,93.76_101.53,50.30_75.01,70.32_75.08,96.26_75.62,115.56_75.13,65.73_123.71,79.29_117.86,83.18_119.88,87.24_117.95,99.81_124.38,91.00_129.56,81.60_131.60,72.91_128.95,83.29_124.26,81.98_125.93,60.16_71.88,60.05_77.54,105.86_72.01,105.67_77.79
13.597457885742188,0.00,0.43,0.00,0.93,2.16,1.80,-4.90,-0.12,176.93,188.24,44.94_110.66,56.17_138.99,81.25_156.74,108.77_138.56,123.42_110.60,44.56_65.22,57.74_60.98,71.48_64.02,93.69_64.05,107.35_61.07,120.99_65.33,82.74_74.45,82.36_93.76,71.76_99.94,82.48_100.82,93.65_99.78,49.53_75.31,69.61_75.35,95.96_75.55,115.72_75.31,64.39_124.15,78.30_117.29,82.81_119.33,87.57_117.14,99.88_124.35,91.79_130.66,81.51_132.88,71.68_130.59,82.92_124.03,81.68_126.89,59.33_72.00,59.55_77.94,105.72_72.01,105.66_77.79
13.79824686050415,0.00,0.43,0.00,0.12,2.17,2.05,-4.05,1.45,176.93,187.47,45.56_110.86,57.40_139.56,82.13_157.68,109.10_139.25,123.99_111.06,45.41_65.73,58.66_62.19,72.40_65.18,94.64_65.11,108.40_62.40,121.84_66.24,83.32_75.06,82.78_95.02,72.11_100.65,82.92_101.75,94.44_100.53,50.10_75.63,70.16_75.69,96.96_76.02,116.56_75.96,65.47_124.92,79.04_118.30,83.51_120.42,88.31_118.22,100.70_125.21,92.54_131.34,82.40_133.53,72.82_131.21,83.64_125.14,82.62_127.53,59.84_72.31,60.00_78.13,106.73_72.61,106.61_78.28
13.998933792114258,0.00,0.43,0.00,-3.08,1.81,2.12,-6.23,1.50,182.49,185.43,44.68_108.05,57.30_138.85,83.21_156.03,111.01_138.98,126.69_108.59,44.78_65.66,58.76_61.65,73.29_64.97,95.54_64.92,109.64_61.81,123.60_65.61,84.07_74.65,84.33_97.32,73.34_101.74,83.89_103.89,95.92_101.79,50.82_74.74,71.01_74.96,97.76_74.98,117.47_74.67,65.39_124.20,80.32_118.11,84.42_120.15,88.88_118.29,102.30_124.78,93.28_130.40,82.74_132.39,72.85_129.74,84.51_124.63,83.13_126.68,60.53_71.67,60.33_77.13,107.79_71.60,107.74_77.09
14.199591875076294,0.00,0.43,0.00,0.97,1.21,1.01,-2.17,-0.53,174.86,190.58,46.06_111.03,58.46_140.26,84.24_158.29,111.08_139.32,124.51_110.44,46.71_65.11,59.99_61.18,73.60_64.17,95.23_64.17,108.87_61.17,122.24_65.36,84.43_73.52,84.30_94.50,73.22_100.02,84.54_101.55,96.00_99.77,51.95_75.08,71.54_75.08,97.55_75.17,116.70_75.18,66.58_124.30,80.16_117.12,84.91_119.33,89.95_117.05,102.64_124.00,94.86_130.97,84.25_133.58,74.05_130.89,85.08_124.23,84.47_127.45,61.61_71.46,61.69_77.46,107.07_71.57,107.00_77.46
14.4005708694458,0.00,0.43,0.00,-16.42,3.89,4.38,0.86,8.99,168.58,171.90,40.70_95.75,57.08_135.07,81.58_152.24,109.75_137.49,130.63_99.09,47.98_65.07,58.88_65.00,70.14_66.34,96.10_65.95,108.55_64.51,120.80_65.55,82.85_77.16,81.82_105.35,73.98_106.69,82.00_109.55,91.47_106.95,55.46_76.02,71.19_77.14,96.01_77.33,112.02_75.61,67.24_122.24,79.08_118.40,82.44_120.07,85.88_118.79,99.62_122.94,90.14_127.74,81.61_129.49,74.64_126.85,82.59_123.90,81.88_124.84,63.70_74.66,63.12_78.51,103.30_74.20,103.62_78.13
14.60121774673462,0.00,0.43,0.00,-6.66,3.89,2.78,2.25,6.88,161.47,176.75,41.91_103.78,57.97_138.06,80.25_154.17,106.05_138.16,125.35_104.71,47.39_66.61,58.35_64.41,69.94_66.08,92.11_65.86,104.47_64.11,117.14_66.92,81.31_74.75,81.10_100.52,71.50_101.92,80.89_104.55,91.21_101.91,52.20_75.69,69.21_74.67,93.69_75.12,110.08_75.39,64.95_122.52,77.72_117.22,81.10_119.08,84.59_117.42,96.66_123.45,87.76_129.06,79.26_131.27,71.89_128.52,81.17_123.07,79.59_126.50,60.56_73.37,60.72_76.99,101.42_73.37,101.33_77.03
14.8021559715271,0.00,0.43,0.00,-7.92,13.68,0.81,3.06,15.09,148.75,163.84,43.44_104.97,54.78_135.33,75.59_151.62,104.22_137.35,123.30_105.26,44.64_72.46,53.15_70.26,64.12_70.25,82.90_68.49,95.57_68.02,108.89_70.38,73.08_79.93,71.65_102.76,65.81_105.25,72.97_106.74,82.79_105.05,48.44_81.12,64.44_80.89,85.93_80.10,102.28_78.79,63.45_124.20,71.44_119.13,74.22_120.71,77.24_119.30,91.46_124.74,81.66_128.56,74.40_129.99,69.33_127.98,74.42_123.80,74.30_125.93,56.49_78.22,56.53_84.18,93.19_76.65,93.50_82.92
15.002715826034546,0.00,0.43,0.00,-2.68,6.32,-12.78,9.04,5.55,143.58,184.44,43.61_112.19,58.51_144.31,82.67_159.25,107.97_141.14,124.62_105.27,47.52_74.41,57.01_68.80,68.53_68.17,84.55_65.95,97.14_63.49,109.22_68.12,76.98_75.45,78.25_99.79,71.19_105.23,78.87_106.69,88.51_104.10,53.30_80.19,67.26_78.30,89.98_76.60,103.98_75.75,66.39_127.95,77.21_120.84,80.98_122.01,85.12_120.16,96.43_126.49,89.18_131.86,80.46_134.76,72.69_133.50,81.26_126.22,80.22_129.13,59.94_76.32,60.62_80.79,96.06_72.61,96.40_78.25
15.20384168624878,0.00,0.43,0.00,-7.56,10.58,-2.19,4.42,16.58,146.49,162.95,43.14_107.03,55.81_136.81,78.03_152.38,105.28_137.24,123.21_105.24,45.37_74.74,54.30_72.13,65.29_71.64,83.45_69.57,96.01_69.20,108.65_71.80,74.24_80.00,74.06_103.10,68.04_106.06,75.30_107.36,84.65_105.29,49.59_82.16,65.19_81.19,86.96_80.07,102.31_78.84,64.98_125.37,73.57_119.99,76.67_121.45,79.95_119.94,92.72_125.49,83.59_129.11,76.19_130.78,70.78_129.16,76.88_124.82,75.95_126.54,57.38_79.01,57.60_84.26,93.70_76.67,94.15_82.37
15.404308795928955
15.608905792236328,0.00,0.43,0.00,-7.72,1.81,-7.40,5.94,10.95,150.68,183.61,44.28_115.84,62.28_148.67,86.59_163.96,108.30_144.39,124.31_109.06,48.06_80.41,58.58_75.46,71.13_73.76,89.48_71.89,101.91_70.67,113.15_75.11,80.89_83.08,82.95_109.59,74.09_112.06,82.89_114.01,92.97_110.91,53.35_85.99,69.88_84.18,92.06_82.75,107.69_81.91,68.76_134.28,80.68_128.12,84.04_129.50,87.52_127.59,99.25_132.90,91.43_138.25,83.51_141.08,76.08_139.22,84.38_133.56,83.15_136.00,61.22_81.90,61.79_87.51,99.13_78.83,99.53_84.95
15.805676937103271
16.005217790603638,0.00,0.43,0.00,1.74,3.21,-2.02,0.75,10.18,160.58,187.32,43.55_119.07,58.09_148.97,81.41_166.28,105.14_147.45,120.41_117.07,45.64_80.15,55.80_73.67,69.17_71.34,89.87_70.60,103.39_71.11,115.00_76.90,79.12_81.52,79.41_102.82,68.97_107.86,79.75_108.77,91.55_107.45,50.01_84.63,67.53_82.49,92.79_81.24,110.01_82.34,65.22_134.24,76.90_126.85,80.53_128.58,84.45_126.57,96.44_133.44,88.66_138.87,80.25_141.21,72.25_139.51,80.75_132.58,80.15_136.22,58.28_80.35,59.12_85.20,100.67_78.59,100.52_83.41
16.207242965698242,0.00,0.43,0.00,-4.02,4.55,2.00,-5.34,2.49,175.71,190.41,42.01_110.47,56.08_142.48,80.59_161.17,108.51_142.86,127.07_110.24,43.78_69.30,55.86_64.35,69.78_67.58,92.64_67.46,106.74_64.61,119.68_69.17,80.64_78.65,79.93_101.78,70.82_106.12,80.45_109.10,91.29_106.08,51.75_80.09,68.95_80.33,94.58_80.37,111.99_80.23,64.10_127.30,77.14_121.07,81.56_122.68,86.17_121.04,98.92_127.64,90.80_134.70,80.27_137.22,70.71_134.54,81.74_126.86,80.70_131.25,60.37_77.41,60.53_81.98,102.84_77.52,102.87_82.02
16.407907962799072,0.00,0.43,0.00,-3.48,0.65,1.62,-6.63,10.08,181.26,180.64,41.82_114.92,56.89_145.62,82.74_160.61,109.64_145.45,127.59_114.91,44.04_72.23,56.84_68.59,70.97_71.26,96.49_71.12,109.95_68.58,122.34_72.20,83.50_82.45,84.05_106.38,73.95_109.60,83.82_112.17,94.66_109.47,51.14_82.82,70.05_82.70,97.11_82.94,115.57_82.66,66.57_130.70,80.25_124.67,84.31_126.43,88.38_124.82,100.14_131.40,91.32_135.58,82.56_137.25,73.97_134.97,84.55_130.88,82.81_131.71,60.42_79.59,60.48_84.86,106.39_79.45,106.31_84.81
16.605130672454834,0.00,0.43,0.00,3.63,2.03,1.41,-4.93,3.27,172.52,188.96,42.27_115.36,55.14_143.43,79.88_160.73,106.50_142.56,120.99_114.76,43.30_69.03,55.75_64.34,68.94_66.48,92.05_66.30,105.63_64.35,117.82_69.30,80.75_76.65,80.05_96.79,69.85_102.91,80.24_103.82,91.09_102.72,49.50_78.88,68.52_78.52,93.00_78.67,111.60_78.99,63.31_127.15,76.49_119.29,80.68_121.28,85.23_119.30,97.32_127.39,89.39_133.69,79.76_135.89,70.58_133.46,80.94_126.20,80.06_129.69,58.76_74.71,59.23_81.03,102.13_74.79,101.95_81.01
16.80962586402893,0.00,0.43,0.00,-5.11,-0.25,1.31,-5.14,7.80,172.37,175.06,37.67_110.84,53.64_140.63,80.69_153.68,107.67_140.24,123.56_110.57,43.04_66.23,55.71_64.45,68.15_67.44,93.27_67.51,105.56_64.79,117.49_66.91,80.41_77.57,81.01_103.35,71.49_106.58,80.84_108.70,90.95_106.40,49.49_77.67,67.68_78.02,93.40_78.18,110.92_77.89,63.93_126.26,77.76_121.24,81.34_123.02,84.89_121.38,97.61_126.78,88.25_129.77,80.28_130.91,72.56_129.11,81.43_127.12,80.60_126.04,58.74_74.91,58.55_80.04,102.08_75.01,101.93_80.29
17.008206844329834,0.00,0.43,0.00,-1.12,2.55,1.74,-5.34,0.04,176.10,192.19,40.98_110.43,55.31_142.51,81.08_160.20,108.43_142.85,124.85_110.84,43.88_67.08,56.72_62.24,70.95_66.07,91.82_65.95,106.63_62.30,119.94_67.10,81.46_74.87,80.82_99.17,71.07_104.44,80.98_107.11,91.62_104.39,51.61_77.26,69.04_77.42,94.54_77.30,111.76_76.90,64.41_125.55,76.68_118.31,81.60_120.12,86.73_118.37,98.81_125.83,91.15_132.70,80.67_135.21,71.01_132.12,81.74_124.89,80.98_128.49,60.28_74.51,60.25_79.15,102.97_74.18,103.02_78.86
17.211232900619507,0.00,0.43,0.00,-13.96,2.28,5.04,-4.08,9.56,175.17,175.31,37.66_103.54,53.96_139.11,79.22_155.65,108.57_141.81,129.35_106.29,44.89_66.29,57.14_68.46,68.28_72.93,95.95_72.98,107.69_68.79,120.55_68.12,81.88_81.46,81.16_109.28,71.97_109.52,81.01_112.50,91.48_110.09,51.61_79.27,68.76_80.65,95.78_81.41,113.08_80.18,64.77_124.13,77.94_120.92,81.30_122.80,84.88_121.53,98.27_125.99,88.41_131.14,79.97_132.82,72.69_129.72,81.38_127.09,80.29_127.49,60.67_79.07,60.12_81.92,103.80_79.65,103.99_82.75
17.412003993988037,0.00,0.43,0.00,-16.93,2.50,4.83,-3.61,8.99,174.89,173.85,37.71_100.26,54.82_138.31,79.09_153.86,107.94_140.62,129.72_102.98,45.27_65.53,57.82_68.99,68.21_73.48,96.29_73.26,107.53_68.60,120.82_66.35,81.87_81.41,80.99_109.51,72.66_109.11,81.00_112.10,90.58_109.39,52.23_79.06,69.16_80.28,95.94_80.51,112.93_78.81,65.37_124.27,78.28_120.16,81.26_121.92,84.51_120.56,97.42_125.43,87.62_130.47,79.79_132.22,73.03_129.60,81.40_126.07,80.16_127.28,61.32_79.29,60.91_81.80,103.57_79.02,103.86_81.79
17.61297082901001,0.00,0.43,0.00,-4.98,3.79,2.05,-6.71,-0.46,177.13,191.06,39.40_107.30,53.90_141.01,79.54_158.75,107.98_142.41,127.28_107.15,42.80_65.51,55.24_61.54,68.99_65.77,91.69_65.38,105.62_61.68,119.31_64.73,79.79_75.65,79.20_100.86,70.20_104.28,79.64_107.88,90.23_104.40,50.58_76.37,67.84_76.98,94.05_77.00,111.22_76.20,64.16_124.86,76.22_118.03,80.94_119.74,85.79_118.11,97.85_125.62,89.83_132.27,79.61_134.50,70.44_131.60,80.98_124.14,79.93_128.07,59.25_74.18,59.13_78.65,102.30_74.06,102.35_78.41
17.813601970672607,0.00,0.43,0.00,-0.85,2.66,2.55,-5.61,5.14,178.64,183.41,42.22_110.30,56.85_141.53,81.08_157.98,108.12_143.22,124.57_111.77,44.33_68.44,57.13_64.68,70.51_66.76,93.88_66.70,108.28_64.38,121.49_68.92,81.83_75.47,81.52_99.67,71.96_104.04,81.38_106.19,92.10_104.41,50.43_77.73,69.41_77.67,95.67_77.48,114.44_77.92,64.82_126.15,79.02_119.47,82.01_121.17,85.30_119.68,99.67_126.96,90.32_131.78,81.34_133.73,73.04_131.30,82.06_125.38,81.56_128.38,60.03_74.27,59.96_79.59,104.99_74.17,104.71_79.61
18.014310836791992,0.00,0.43,0.00,-1.39,2.62,3.04,-6.18,5.37,180.56,182.96,41.45_110.32,56.16_141.00,80.78_157.84,108.31_142.87,125.24_112.06,44.29_68.51,57.39_64.72,71.24_67.29,93.85_67.19,108.62_64.36,122.29_68.82,81.97_75.96,81.53_100.40,71.98_104.69,81.42_106.97,92.20_105.11,50.71_77.77,69.62_78.02,95.95_77.79,114.60_78.00,64.31_125.38,78.86_119.62,81.95_121.39,85.35_119.79,99.74_126.17,90.32_131.14,81.18_133.29,72.57_130.74,82.01_125.62,81.36_127.65,60.40_74.37,60.17_79.69,105.09_74.33,104.87_79.78
18.214918851852417,0.00,0.43,0.00,-4.50,3.50,2.55,-6.51,0.40,178.98,191.30,40.28_108.33,55.56_141.84,80.65_159.82,108.35_142.93,126.71_109.58,43.52_66.30,56.21_62.51,70.31_66.39,92.34_66.34,107.09_62.87,120.83_66.61,81.14_76.52,80.26_102.11,70.98_105.31,80.65_109.14,91.19_105.25,51.27_77.22,68.98_77.90,94.77_77.92,112.34_77.40,64.50_125.99,76.81_118.89,81.35_120.54,86.11_118.94,98.67_126.31,90.63_133.18,80.47_135.62,71.27_132.72,81.43_125.06,80.78_129.20,60.20_74.91,60.12_79.60,103.35_74.96,103.37_79.65
18.41129183769226,0.00,0.43,0.00,0.24,2.41,1.90,-1.13,3.06,169.07,189.34,43.83_112.54,56.41_142.05,81.61_160.85,108.78_142.13,123.59_112.29,46.13_68.49,58.25_64.11,71.19_66.90,93.58_66.98,106.88_64.42,119.16_68.89,82.28_76.78,81.56_98.62,71.84_103.80,81.98_105.30,92.68_103.79,52.72_78.57,70.77_78.73,94.78_78.84,112.63_78.94,64.60_125.44,78.13_119.45,82.57_121.43,87.26_119.47,100.41_125.48,91.97_132.70,81.59_135.45,71.90_132.44,82.77_125.98,81.85_129.12,61.69_75.22,61.85_81.00,103.39_75.38,103.31_81.12
18.61624789237976,0.01,0.43,0.00,1.53,1.28,2.38,-1.78,2.58,174.03,189.31,45.40_112.66,56.48_140.91,83.15_160.34,111.62_141.05,123.95_112.96,46.87_68.96,60.10_63.52,74.50_67.26,94.37_67.42,108.91_63.93,122.04_69.91,84.46_76.12,83.87_97.55,73.02_102.30,84.03_104.36,95.41_102.37,53.23_77.69,72.32_77.96,97.00_78.15,115.72_78.21,64.70_123.46,79.17_118.63,84.40_120.69,89.85_118.81,103.79_123.89,95.42_131.73,83.47_134.58,72.04_131.15,84.51_124.82,83.70_128.66,62.46_74.50,62.54_79.94,106.42_74.81,106.35_80.28
18.817194938659668,0.00,0.43,0.00,-4.47,2.09,4.41,-4.05,6.67,178.68,177.97,43.38_108.10,55.33_137.88,81.56_154.98,111.26_139.93,126.15_110.70,45.90_67.88,58.91_64.14,73.60_67.57,95.01_67.87,109.75_64.67,123.08_69.43,84.13_76.59,83.41_103.33,73.17_104.98,83.27_108.16,94.64_105.38,52.85_77.22,71.90_77.91,96.67_78.35,116.05_78.07,62.77_119.92,78.70_118.63,83.32_120.63,88.10_119.21,104.11_121.94,93.82_128.92,81.98_131.42,71.01_127.42,83.45_124.21,82.33_126.33,61.95_74.86,61.73_79.43,106.59_75.22,106.57_80.18
19.013900756835938,0.00,0.43,0.00,-5.51,3.42,3.74,-5.22,2.05,181.39,188.14,44.10_107.19,56.81_139.28,82.29_158.83,111.65_141.22,128.66_109.40,45.48_66.59,58.88_62.96,73.15_66.81,95.30_67.01,109.68_63.50,123.83_67.52,83.69_77.55,83.29_102.58,73.55_104.25,83.52_107.42,94.85_104.61,52.07_76.52,71.49_77.10,97.43_77.71,116.81_77.71,64.12_122.58,79.21_118.73,83.75_120.64,88.59_119.09,104.21_123.51,94.25_131.38,82.22_134.44,71.54_130.53,84.00_124.96,82.64_128.66,61.73_74.20,61.42_78.79,107.10_74.79,107.02_79.62
19.21863079071045,10.01,0.21,0.01,1.53,1.30,1.81,-1.38,3.31,171.73,188.89,44.86_113.38,55.82_140.99,82.55_160.72,110.32_141.12,122.80_113.86,46.62_69.85,59.25_64.15,73.54_68.29,93.17_68.30,107.80_64.23,120.80_70.02,83.42_77.52,82.83_98.31,72.19_103.04,83.12_104.96,94.31_103.00,52.39_78.91,71.47_79.16,95.70_79.17,114.83_78.88,64.68_123.55,78.52_119.07,83.55_120.90,88.76_119.08,102.36_123.57,94.40_132.02,82.92_135.17,71.95_131.71,83.61_124.77,83.10_129.34,61.57_76.14,61.64_81.27,105.42_75.99,105.34_81.25
19.419301986694336,57.50,0.01,38.81,0.19,0.51,1.51,5.41,5.06,165.97,188.03,49.31_114.28,60.16_142.02,87.04_161.76,114.41_141.72,126.12_114.28,51.81_71.19,64.04_65.80,77.84_69.21,97.16_69.04,111.22_65.63,123.50_71.28,87.81_78.59,87.44_100.30,77.39_104.80,87.65_106.56,98.01_104.64,57.94_80.33,76.07_80.48,99.21_80.54,117.62_80.38,69.52_125.43,83.17_121.18,87.97_123.03,92.86_121.20,105.71_125.43,98.01_133.18,87.26_136.31,76.91_133.01,88.05_127.17,87.44_130.37,66.83_77.44,67.00_82.67,108.53_77.21,108.47_82.82
19.62006688117981,22.67,0.08,0.11,1.41,0.85,1.61,1.89,4.95,170.79,188.22,47.68_115.03,59.46_142.26,86.17_161.80,113.61_141.61,125.40_114.74,49.63_70.98,62.42_65.53,76.56_68.85,96.41_68.91,110.64_65.74,123.40_71.59,86.62_78.19,86.28_99.77,75.69_104.41,86.39_106.06,97.30_104.35,55.61_80.12,74.50_80.17,98.80_80.32,117.33_80.48,68.15_125.33,81.89_120.62,86.59_122.51,91.44_120.67,104.84_125.19,97.03_133.08,86.11_136.18,75.59_132.76,86.74_126.65,86.23_130.07,64.84_76.82,64.94_82.39,108.13_77.05,107.99_82.66
19.820875883102417,10.60,0.20,0.01,-14.18,1.09,3.22,1.57,11.77,171.94,165.97,46.25_102.37,57.87_132.06,85.02_150.08,113.94_133.64,127.44_103.55,49.63_66.99,61.82_65.29,74.89_68.92,97.96_68.83,111.34_65.32,123.90_67.36,86.17_79.42,85.90_107.53,75.50_105.52,85.78_109.88,96.98_105.83,56.35_78.13,74.47_78.88,98.58_78.95,117.22_78.47,66.26_116.53,81.60_118.18,86.22_119.94,90.92_118.54,106.20_117.73,96.56_125.14,85.29_127.82,74.49_124.03,86.34_122.93,85.40_123.70,65.00_76.12,65.09_80.57,108.06_75.99,108.08_80.90
20.021315813064575,3.98,0.32,0.00,-9.13,1.09,3.19,1.66,9.70,171.32,173.01,46.47_107.81,58.82_136.75,85.10_153.88,113.31_137.60,127.84_108.63,49.55_68.35,62.67_65.76,76.52_69.66,97.04_69.60,110.64_66.04,123.55_69.19,86.50_79.55,86.23_106.88,75.88_106.63,86.06_110.63,97.26_107.08,55.94_79.08,74.59_79.87,98.67_80.00,118.06_79.66,66.09_119.86,82.06_119.78,86.53_121.70,91.10_120.35,106.64_121.74,96.78_128.85,85.41_131.59,74.50_127.49,86.62_125.33,85.74_126.79,64.87_76.92,64.78_81.73,108.58_76.94,108.78_82.26
20.22249484062195,12.15,0.18,0.02,-2.91,1.37,1.67,-5.04,3.67,178.26,185.74,43.02_110.15,56.99_140.44,82.89_158.46,110.30_139.79,124.57_109.88,44.79_67.38,57.87_63.58,72.04_66.49,94.70_66.74,108.46_63.60,121.79_68.08,82.90_76.92,82.79_102.28,72.81_103.91,83.14_106.60,94.22_103.80,51.66_77.82,70.60_77.89,95.88_77.98,114.89_78.28,63.69_122.48,79.29_118.22,83.48_119.96,87.81_118.44,103.32_122.59,93.55_130.44,82.47_133.60,71.90_129.86,83.72_124.20,82.87_127.79,61.12_75.07,60.89_79.96,105.40_75.11,105.30_80.35
20.423436880111694,9.96,0.21,0.01,0.59,1.76,1.34,-0.95,3.10,168.62,188.60,43.48_112.30,56.39_141.11,81.96_160.27,108.88_140.78,122.68_111.90,46.19_69.31,57.98_63.99,71.51_66.45,92.96_66.56,106.81_64.00,119.02_69.15,82.43_76.64,81.61_98.63,71.82_103.19,82.00_104.96,92.64_103.01,53.33_79.01,70.91_78.85,94.28_78.84,111.86_79.02,64.57_123.79,78.17_118.84,82.75_120.48,87.42_118.79,100.74_123.54,92.64_131.73,81.85_135.25,71.66_131.57,82.80_124.44,82.04_128.94,62.11_75.98,62.27_80.95,102.82_75.90,102.75_80.95
20.6242458820343,1.01,0.40,0.00,-8.96,2.73,2.83,-3.55,5.36,175.93,183.66,41.77_105.90,55.26_139.40,82.05_158.41,111.59_140.99,128.40_107.35,45.63_67.74,57.99_65.05,71.09_68.09,95.87_68.28,108.84_64.93,121.62_67.65,82.86_79.36,82.59_105.91,73.04_106.00,82.62_109.72,93.45_106.28,52.81_78.97,70.72_79.13,96.05_79.17,113.96_78.97,64.31_123.35,78.35_119.61,82.90_121.27,87.54_119.95,102.92_123.78,93.18_131.90,81.90_134.98,71.91_131.17,83.13_125.21,82.33_129.85,61.71_76.70,61.55_80.95,105.08_76.43,104.93_80.93
20.82458186149597,50.33,0.01,14.71,-12.52,2.01,2.69,-5.50,6.37,177.92,179.89,40.13_102.98,54.40_136.93,81.26_156.28,110.79_138.86,128.36_104.37,44.24_66.49,56.63_64.68,69.53_68.30,95.85_68.40,108.38_64.61,121.09_66.24,82.02_79.34,82.30_106.94,72.27_106.31,82.23_110.11,93.16_106.75,51.26_77.86,69.47_78.48,95.60_78.62,113.48_77.93,63.62_121.69,78.03_118.92,82.41_120.53,86.89_119.37,102.35_122.34,92.31_130.03,81.25_132.95,71.48_129.32,82.66_124.29,81.60_127.95,60.33_75.93,60.18_80.12,104.43_75.84,104.37_80.05
21.0083327293396,4.90,0.30,0.00,-8.51,2.83,2.85,-6.59,3.75,179.93,183.01,40.74_104.75,54.74_137.93,81.52_156.26,110.42_139.25,127.49_106.17,43.70_66.11,56.45_63.10,70.10_66.23,94.72_66.50,108.20_63.09,121.42_66.30,81.73_77.12,81.61_104.53,72.10_104.69,81.60_108.26,92.38_105.00,51.43_76.86,69.42_77.37,95.37_77.55,113.35_77.29,63.25_121.51,77.40_117.96,81.93_119.60,86.51_118.28,101.61_122.05,91.94_129.87,81.06_132.85,71.10_129.11,82.10_123.52,81.39_127.66,60.50_74.71,60.15_78.98,104.37_74.78,104.20_79.29
21.23184585571289,0.74,0.40,0.00,-7.18,4.04,3.90,-5.96,4.10,177.08,184.84,40.93_106.14,54.17_138.49,79.21_158.13,108.07_140.29,125.93_108.51,43.54_67.78,56.28_64.03,70.09_67.15,92.53_67.41,106.52_64.13,120.03_68.26,80.71_77.65,79.79_104.41,70.81_105.26,79.99_108.92,90.54_105.62,51.21_78.02,68.86_78.32,93.66_78.60,111.67_78.52,61.92_122.13,75.88_118.87,80.26_120.51,84.85_119.30,100.18_122.75,90.61_131.16,79.09_134.49,68.87_130.34,80.42_124.20,79.54_129.27,60.02_75.56,59.83_79.86,102.48_75.72,102.45_80.24
21.426925897598267,0.02,0.43,0.00,0.64,1.56,1.65,-2.53,0.61,172.00,190.93,43.86_111.05,55.96_140.40,81.80_159.72,108.91_140.33,123.12_110.91,45.55_67.30,57.98_62.29,71.76_64.79,93.36_65.04,107.09_62.34,119.85_67.23,82.33_75.30,81.97_96.74,71.54_101.59,82.22_103.53,93.59_101.60,52.35_77.35,70.72_77.19,95.04_77.29,113.28_77.53,64.87_123.90,78.37_117.72,83.15_119.65,88.06_117.71,100.59_123.77,92.55_131.42,81.91_134.48,71.71_131.28,83.22_123.84,82.07_128.19,61.53_74.12,61.78_79.44,103.87_74.19,103.75_79.48
21.62646985054016,0.04,0.42,0.00,-8.40,3.93,3.39,-4.00,3.90,173.79,183.07,41.06_104.89,53.83_135.89,79.58_156.45,109.00_137.83,126.65_106.32,44.58_67.18,56.63_62.97,70.16_66.62,91.98_66.91,105.98_63.39,119.65_67.09,80.70_77.45,79.66_102.88,69.95_104.90,80.33_108.80,91.63_105.02,52.26_77.57,69.26_78.31,94.20_78.57,111.51_78.03,62.66_120.61,75.94_118.22,81.41_120.03,86.90_118.39,100.75_121.05,91.69_128.96,79.81_132.04,69.16_128.40,81.46_123.75,80.10_126.50,60.84_75.79,60.77_79.93,102.52_76.06,102.58_80.27
21.828948974609375,95.37,0.00,99.84,-5.14,3.43,2.51,-2.96,3.83,173.27,192.05,42.11_112.46,54.34_142.44,81.51_163.88,111.19_143.59,127.01_113.58,45.47_70.79,57.60_66.41,70.90_70.11,93.80_70.32,107.43_66.96,120.32_70.99,81.63_81.68,80.81_106.39,71.10_109.08,81.60_112.36,92.83_109.16,52.55_82.02,69.95_82.65,95.06_83.14,112.97_82.77,62.86_125.75,76.50_121.60,82.48_123.18,88.45_121.64,103.16_125.76,94.76_136.12,81.77_140.35,69.86_135.74,82.42_127.75,82.02_133.70,61.26_79.90,61.24_84.02,103.95_80.29,103.84_84.69
22.014331817626953,99.99,0.00,99.93,-11.83,3.75,2.22,-7.72,5.60,178.22,190.81,37.28_108.84,52.63_143.78,79.80_164.61,110.31_144.37,129.74_108.81,42.10_71.43,54.88_68.85,67.85_72.81,92.19_72.60,105.76_68.43,119.08_70.95,79.79_84.26,79.52_113.11,69.20_111.79,79.91_116.04,91.30_112.14,49.39_83.98,67.14_84.38,93.96_84.51,111.98_84.04,58.31_124.83,75.36_121.40,80.63_122.52,85.93_121.48,102.38_124.97,93.13_138.46,79.63_143.49,66.39_138.24,80.75_126.39,79.84_137.44,58.25_82.36,58.30_85.54,102.80_82.23,103.05_85.52
22.235087871551514,99.95,0.00,99.93,-11.11,3.60,2.93,-10.34,13.41,182.58,181.75,36.62_108.99,52.55_144.84,79.07_164.87,107.78_145.43,127.15_110.30,40.70_75.45,53.80_73.32,66.22_77.52,92.48_77.60,105.75_72.93,119.57_75.36,79.04_86.64,78.75_114.54,68.95_112.88,78.63_116.80,89.26_113.65,48.33_86.35,65.28_86.37,93.90_86.67,111.03_86.37,58.93_124.95,73.96_120.53,78.99_121.55,84.07_120.72,100.15_125.55,91.37_139.08,78.28_143.64,66.19_138.50,79.18_125.28,78.44_137.97,56.98_86.48,56.59_86.73,102.20_86.57,102.50_86.81
22.426949977874756,100.00,0.00,99.93,-4.67,2.47,2.00,-6.29,4.18,174.13,191.87,38.81_112.54,50.93_141.70,78.51_164.07,108.01_142.56,123.30_113.79,42.39_71.60,54.97_67.08,68.39_71.55,90.42_71.56,104.01_66.79,117.61_71.22,78.83_83.22,78.23_107.18,67.09_108.30,78.80_112.58,91.08_108.63,48.22_83.35,66.34_83.71,93.17_83.83,111.26_83.69,59.08_123.83,73.21_119.68,79.81_121.03,86.25_119.68,101.28_123.86,92.98_135.92,79.33_140.89,66.42_135.64,79.54_125.20,79.43_134.52,56.86_81.93,56.94_84.88,102.44_82.09,102.27_85.02
22.631894826889038,99.62,0.00,99.93,-2.66,1.34,1.80,-1.70,4.17,170.18,193.94,41.26_114.70,53.71_144.32,81.56_165.78,110.88_144.48,125.43_115.44,45.87_71.87,58.41_67.29,71.55_71.13,93.80_71.38,106.49_67.38,119.38_71.90,82.09_83.00,81.62_107.13,70.40_108.65,81.98_112.46,94.20_108.90,51.71_83.50,69.43_83.95,95.71_84.21,113.09_84.13,62.08_125.09,76.65_120.50,83.06_121.99,89.41_120.52,104.15_124.95,95.83_137.13,82.33_141.80,69.36_136.81,82.77_126.43,82.50_135.52,60.39_82.08,60.33_84.98,104.51_82.43,104.38_85.43
22.83279585838318,99.99,0.00,99.93,-9.14,2.16,1.87,-5.08,7.72,176.91,186.26,41.24_110.56,54.39_143.01,82.68_162.93,111.56_143.07,127.36_110.78,44.37_70.64,57.24_68.81,69.81_73.38,95.03_73.53,107.62_68.95,120.79_70.87,81.86_84.41,82.01_111.65,70.75_109.95,82.16_113.84,94.18_110.33,50.24_83.33,68.96_84.08,96.14_84.38,114.73_83.88,60.85_124.89,77.50_119.65,83.00_121.13,88.35_119.70,104.16_125.00,94.90_137.28,82.34_141.48,69.55_136.88,82.97_125.91,82.49_135.18,59.60_82.33,59.30_84.89,105.46_82.62,105.56_85.43
23.033557891845703,99.36,0.00,99.92,2.13,1.72,1.43,-4.84,4.75,176.02,193.92,42.17_117.98,52.92_145.24,81.45_166.34,111.02_145.21,124.47_118.73,44.37_73.68,56.99_67.77,70.98_71.07,93.64_71.21,107.27_67.80,120.40_73.35,81.80_82.86,81.21_104.71,69.66_107.83,81.72_110.90,94.47_107.97,50.18_84.39,69.45_84.41,95.53_84.52,114.38_84.57,60.57_125.94,76.02_120.10,82.75_121.80,89.39_120.03,105.35_125.51,96.68_137.42,82.16_142.04,68.16_137.26,82.49_126.59,82.25_135.52,59.57_81.41,59.62_85.76,105.09_81.52,104.86_85.90
23.234338760375977,99.98,0.00,99.93,-8.83,1.58,-0.00,-1.32,5.41,174.34,193.84,44.11_114.47,59.25_147.50,86.11_166.94,114.16_146.23,131.25_112.01,47.41_73.03,60.14_69.87,73.25_74.58,97.05_74.23,109.65_69.54,122.72_71.98,84.84_86.20,85.75_113.52,74.57_112.23,85.82_116.51,97.49_112.50,53.61_85.21,72.32_86.03,98.86_86.20,117.33_85.30,64.35_127.33,81.65_122.70,87.02_123.87,92.24_122.59,107.44_127.15,99.40_141.21,86.33_146.51,72.62_141.25,87.03_127.97,86.44_140.33,62.93_83.43,62.69_87.12,108.10_83.39,108.41_87.25
23.435160875320435,99.97,0.00,99.93,-5.64,1.00,1.75,-5.80,5.89,177.89,191.40,41.17_114.04,54.69_145.84,82.42_165.39,110.50_145.43,125.88_113.85,43.93_71.95,56.88_68.77,69.92_72.85,95.35_73.14,107.93_69.30,120.77_72.72,82.05_85.31,82.35_111.08,70.84_110.03,82.36_113.94,94.59_110.50,49.69_84.29,68.91_84.88,96.06_85.28,114.90_85.21,60.69_126.22,77.85_120.63,83.29_122.27,88.45_120.67,104.26_126.40,95.37_139.23,82.44_143.71,69.09_138.83,83.21_127.00,82.63_137.49,59.35_82.43,58.97_85.83,105.59_82.98,105.57_86.63
23.63561987876892,99.97,0.00,99.93,-7.17,2.00,1.69,-4.01,4.43,176.75,190.27,42.96_111.46,55.81_142.99,82.69_162.99,111.55_143.05,127.80_111.54,45.40_70.55,58.10_67.34,70.88_71.51,95.99_71.51,108.68_67.24,121.75_70.29,83.02_84.04,83.10_109.86,71.67_108.52,83.24_112.51,95.52_108.86,51.04_82.79,70.24_83.28,97.13_83.43,116.17_82.94,62.08_124.57,78.73_119.09,84.11_120.60,89.29_119.03,105.12_124.52,96.31_137.66,83.34_142.46,70.19_137.48,84.03_125.04,83.54_136.38,60.53_80.95,60.18_84.42,106.84_80.97,106.84_84.54
